{
  "Alabama": [
    {
      "name": "Gems Club",
      "city": "Birmingham",
      "state": "AL",
      "zip": "35203",
      "url": "https://www.gemsclub.co/",
      "lat": 33.521,
      "lng": -86.8066
    },
    {
      "name": "Seduction",
      "city": "Birmingham",
      "state": "AL",
      "zip": "35203",
      "url": "https://seductionparties.club/",
      "lat": 33.521,
      "lng": -86.8066
    },
    {
      "name": "Erotica",
      "city": "Huntsville",
      "state": "AL",
      "zip": "35801",
      "url": "https://eroticaparty.com/",
      "lat": 34.7269,
      "lng": -86.5673
    }
  ],
  "Alaska": [],
  "Arizona": [
    {
      "name": "Vixxxins",
      "city": "Goodyear",
      "state": "AZ",
      "zip": "85338",
      "url": "https://www.vixxxins.info/",
      "lat": 33.4368,
      "lng": -112.3834
    },
    {
      "name": "Club Encounters",
      "city": "Phoenix",
      "state": "AZ",
      "zip": "85004",
      "url": "https://clubencounters.com/",
      "lat": 33.4557,
      "lng": -112.0686
    }
  ],
  "Arkansas": [
    {
      "name": "Arkansas Swinger",
      "city": "Rogers",
      "state": "AR",
      "zip": "72756",
      "url": "https://arkansasswinger.net/",
      "lat": 36.3363,
      "lng": -94.1148
    }
  ],
  "California": [
    {
      "name": "SoCal BBW Swingers and Admirers",
      "city": "Anaheim",
      "state": "CA",
      "zip": "92801",
      "url": "https://bbwswingers.party/",
      "lat": 33.8428,
      "lng": -117.9546
    },
    {
      "name": "Simply Living Silver",
      "city": "Bakersfield",
      "state": "CA",
      "zip": "93301",
      "url": "https://simplylivingsilver.com/",
      "lat": 35.3866,
      "lng": -119.0171
    },
    {
      "name": "SoCal Circus",
      "city": "Huntington Beach",
      "state": "CA",
      "zip": "92648",
      "url": "https://socalcircusowner.wix.com/socalcircus",
      "lat": 33.6773,
      "lng": -118.0051
    },
    {
      "name": "Club Joi",
      "city": "Los Angeles",
      "state": "CA",
      "zip": "90012",
      "url": "https://www.clubjoi.com/",
      "lat": 34.0614,
      "lng": -118.2385
    },
    {
      "name": "Club Labyrinth",
      "city": "Los Angeles",
      "state": "CA",
      "zip": "90012",
      "url": "https://clublabyrinth.com/",
      "lat": 34.0614,
      "lng": -118.2385
    },
    {
      "name": "Kinky Rabbit Club",
      "city": "Los Angeles",
      "state": "CA",
      "zip": "90012",
      "url": "https://knkyrabbitclub.com/",
      "lat": 34.0614,
      "lng": -118.2385
    },
    {
      "name": "Noches Atrevidas",
      "city": "Los Angeles",
      "state": "CA",
      "zip": "90012",
      "url": "https://nochesatrevidaslosangeles.weebly.com/",
      "lat": 34.0614,
      "lng": -118.2385
    },
    {
      "name": "Playmates Parties",
      "city": "Los Angeles",
      "state": "CA",
      "zip": "90012",
      "url": "https://swingersclubsreviews.org/",
      "lat": 34.0614,
      "lng": -118.2385
    },
    {
      "name": "Tentaciones",
      "city": "Los Angeles",
      "state": "CA",
      "zip": "90012",
      "url": "https://www.tentacionesla.com/",
      "lat": 34.0614,
      "lng": -118.2385
    },
    {
      "name": "Gary and Margaret's",
      "city": "Mira Loma",
      "state": "CA",
      "zip": "91752",
      "url": "https://garyandmargarets.org/",
      "lat": 33.9938,
      "lng": -117.5236
    },
    {
      "name": "Exotic Dreams Resort",
      "city": "Palm Springs",
      "state": "CA",
      "zip": "92262",
      "url": "https://www.edrhotel.com/",
      "lat": 33.8414,
      "lng": -116.5347
    },
    {
      "name": "Sea Mountain Nude Resort and Lifestyle Hotel",
      "city": "Palm Springs",
      "state": "CA",
      "zip": "92262",
      "url": "https://www.seamountainranch.com/",
      "lat": 33.8414,
      "lng": -116.5347
    },
    {
      "name": "Bronze Party",
      "city": "Palo Alto",
      "state": "CA",
      "zip": "94301",
      "url": "https://bronzeparty.com/",
      "lat": 37.4443,
      "lng": -122.1497
    },
    {
      "name": "Gemini Social Club",
      "city": "Pomona",
      "state": "CA",
      "zip": "91766",
      "url": "https://geminisocialclub.wordpress.com/",
      "lat": 34.0418,
      "lng": -117.7569
    },
    {
      "name": "The Cougars Den",
      "city": "Quartz Hill",
      "state": "CA",
      "zip": "93536",
      "url": "https://www.thecougarsden.info/",
      "lat": 34.7471,
      "lng": -118.3687
    },
    {
      "name": "Allures",
      "city": "Sacramento",
      "state": "CA",
      "zip": "95814",
      "url": "https://www.allureslifestyle.com/",
      "lat": 38.5804,
      "lng": -121.4922
    },
    {
      "name": "The Suite Life",
      "city": "Sacramento",
      "state": "CA",
      "zip": "95814",
      "url": "https://thesuitelifeplatinum.com/",
      "lat": 38.5804,
      "lng": -121.4922
    },
    {
      "name": "The Mountainside Acres Resort",
      "city": "San Bernardino",
      "state": "CA",
      "zip": "92401",
      "url": "https://mountainsideacresresort.com/",
      "lat": 34.1105,
      "lng": -117.2898
    },
    {
      "name": "Club Safeword",
      "city": "San Diego",
      "state": "CA",
      "zip": "92101",
      "url": "https://www.clubsafeword.com/",
      "lat": 32.7185,
      "lng": -117.1593
    },
    {
      "name": "House of Black",
      "city": "San Diego",
      "state": "CA",
      "zip": "92101",
      "url": "https://www.houseofblack.com/",
      "lat": 32.7185,
      "lng": -117.1593
    },
    {
      "name": "Thads",
      "city": "San Diego",
      "state": "CA",
      "zip": "92101",
      "url": "https://www.thads.com/",
      "lat": 32.7185,
      "lng": -117.1593
    },
    {
      "name": "247Fetish",
      "city": "San Francisco",
      "state": "CA",
      "zip": "94103",
      "url": "https://247fetish.net/",
      "lat": 37.7725,
      "lng": -122.4147
    },
    {
      "name": "Club Kiss",
      "city": "San Francisco",
      "state": "CA",
      "zip": "94103",
      "url": "https://www.clubkiss.us/",
      "lat": 37.7725,
      "lng": -122.4147
    },
    {
      "name": "Twist",
      "city": "San Francisco",
      "state": "CA",
      "zip": "94103",
      "url": "https://www.twist-sf.com/",
      "lat": 37.7725,
      "lng": -122.4147
    },
    {
      "name": "Tangerine's Dream",
      "city": "San Jose",
      "state": "CA",
      "zip": "95113",
      "url": "https://tangerinesdream.com/",
      "lat": 37.3329,
      "lng": -121.8916
    },
    {
      "name": "Vixen",
      "city": "Van Nuys",
      "state": "CA",
      "zip": "91401",
      "url": "https://www.vixenclub.com/",
      "lat": 34.1802,
      "lng": -118.4324
    }
  ],
  "Colorado": [
    {
      "name": "Mon Chalet",
      "city": "Aurora",
      "state": "CO",
      "zip": "80012",
      "url": "https://mon-chalet.com/",
      "lat": 39.6987,
      "lng": -104.8377
    },
    {
      "name": "Voodoo Leatherworks",
      "city": "Colorado Springs",
      "state": "CO",
      "zip": "80903",
      "url": "https://www.voodooleatherworks.com/",
      "lat": 38.8388,
      "lng": -104.8145
    },
    {
      "name": "Rocky Mountain Parties",
      "city": "Denver",
      "state": "CO",
      "zip": "80202",
      "url": "https://www.rmpfun.com/",
      "lat": 39.7491,
      "lng": -104.9946
    },
    {
      "name": "Scarlet Ranch",
      "city": "Littleton",
      "state": "CO",
      "zip": "80120",
      "url": "https://www.scarletranch.com/",
      "lat": 39.5994,
      "lng": -105.0044
    }
  ],
  "Connecticut": [
    {
      "name": "Leisure Time Club",
      "city": "Hartford",
      "state": "CT",
      "zip": "06103",
      "url": "https://www.leisuretime-club.com/",
      "lat": 41.7672,
      "lng": -72.676
    },
    {
      "name": "Wicked Fun",
      "city": "Terryville",
      "state": "CT",
      "zip": "06786",
      "url": "https://members.wickedfunclub.com/",
      "lat": 41.6762,
      "lng": -73.0092
    }
  ],
  "Delaware": [],
  "District of Columbia": [
    {
      "name": "Shadows",
      "city": "Washington",
      "state": "D.C.",
      "zip": "20001",
      "url": "https://www.shadowslove.com/",
      "lat": 38.9122,
      "lng": -77.0177
    }
  ],
  "Florida": [
    {
      "name": "Club 3X",
      "city": "Cocoa",
      "state": "FL",
      "zip": "32922",
      "url": "https://club3x.org/",
      "lat": 28.3672,
      "lng": -80.7465
    },
    {
      "name": "Minglers Club",
      "city": "Daytona Beach",
      "state": "FL",
      "zip": "32114",
      "url": "https://www.minglerssocialclub.com/",
      "lat": 29.2012,
      "lng": -81.0371
    },
    {
      "name": "Doodles Deviants",
      "city": "East Lake Weir",
      "state": "FL",
      "zip": "32134",
      "url": "https://www.doodlesdeviants.com/",
      "lat": 29.391,
      "lng": -81.8551
    },
    {
      "name": "Friction",
      "city": "Fort Lauderdale",
      "state": "FL",
      "zip": "33301",
      "url": "https://frictionparties.com/",
      "lat": 26.1216,
      "lng": -80.1288
    },
    {
      "name": "Splash Takeovers",
      "city": "Fort Lauderdale",
      "state": "FL",
      "zip": "33301",
      "url": "https://www.splashtakeovers.com/",
      "lat": 26.1216,
      "lng": -80.1288
    },
    {
      "name": "Trapeze",
      "city": "Fort Lauderdale",
      "state": "FL",
      "zip": "33301",
      "url": "https://trapezeclubs.com/",
      "lat": 26.1216,
      "lng": -80.1288
    },
    {
      "name": "Roof Top Resort",
      "city": "Hollywood",
      "state": "FL",
      "zip": "33019",
      "url": "https://www.rooftopresort.com/",
      "lat": 26.007,
      "lng": -80.1219
    },
    {
      "name": "Club Kink",
      "city": "Jacksonville",
      "state": "FL",
      "zip": "32202",
      "url": "http://www.clubkinkjax.com/",
      "lat": 30.3299,
      "lng": -81.6517
    },
    {
      "name": "Club Uninhibited",
      "city": "Jacksonville",
      "state": "FL",
      "zip": "32202",
      "url": "https://clubuninhibited.wixsite.com/club-uninhibited",
      "lat": 30.3299,
      "lng": -81.6517
    },
    {
      "name": "BBW Swing Kings",
      "city": "Kissimmee",
      "state": "FL",
      "zip": "34741",
      "url": "https://www.bskevents.com/",
      "lat": 28.3051,
      "lng": -81.4242
    },
    {
      "name": "Secrets Hideaway",
      "city": "Kissimmee",
      "state": "FL",
      "zip": "34741",
      "url": "https://www.secretsfl.com/",
      "lat": 28.3051,
      "lng": -81.4242
    },
    {
      "name": "The Florida Treehouse",
      "city": "Lakeland",
      "state": "FL",
      "zip": "33801",
      "url": "https://thefloridatreehouse.fun/",
      "lat": 28.0381,
      "lng": -81.9392
    },
    {
      "name": "Caliente Club and Resort",
      "city": "Land O' Lakes",
      "state": "FL",
      "zip": "34639",
      "url": "https://calienteresorts.com/",
      "lat": 28.2258,
      "lng": -82.4547
    },
    {
      "name": "Play at Paradise",
      "city": "Lutz",
      "state": "FL",
      "zip": "33549",
      "url": "https://paradiselakesresort.com/",
      "lat": 28.1367,
      "lng": -82.461
    },
    {
      "name": "Twisted Pineapple",
      "city": "Melbourne",
      "state": "FL",
      "zip": "32901",
      "url": "https://thetwistedpineapple.wixsite.com/twistedpineapple",
      "lat": 28.0691,
      "lng": -80.62
    },
    {
      "name": "Miami Velvet",
      "city": "Miami",
      "state": "FL",
      "zip": "33132",
      "url": "https://miamivelvet.com/site/",
      "lat": 25.7867,
      "lng": -80.18
    },
    {
      "name": "Tampa Bay Lifestylers",
      "city": "Palm Harbor",
      "state": "FL",
      "zip": "34683",
      "url": "https://www.tampabaylifestylers.com/",
      "lat": 28.0662,
      "lng": -82.7585
    },
    {
      "name": "Hotspot",
      "city": "Pierson",
      "state": "FL",
      "zip": "32180",
      "url": "https://www.banginevents.com/",
      "lat": 29.2226,
      "lng": -81.4353
    },
    {
      "name": "SLS Radio",
      "city": "Plantation",
      "state": "FL",
      "zip": "33324",
      "url": "https://www.slsradio.me/",
      "lat": 26.1255,
      "lng": -80.2644
    },
    {
      "name": "Eyz Wide Shut",
      "city": "Tampa",
      "state": "FL",
      "zip": "33602",
      "url": "https://eyzwideshut.com/",
      "lat": 27.9614,
      "lng": -82.4597
    }
  ],
  "Georgia": [
    {
      "name": "Friction",
      "city": "Atlanta",
      "state": "GA",
      "zip": "30303",
      "url": "https://frictionparties.com/",
      "lat": 33.7525,
      "lng": -84.3888
    },
    {
      "name": "The Loft",
      "city": "Atlanta",
      "state": "GA",
      "zip": "30303",
      "url": "https://www.swingingatlanta.com/",
      "lat": 33.7525,
      "lng": -84.3888
    },
    {
      "name": "Trapeze",
      "city": "Atlanta",
      "state": "GA",
      "zip": "30303",
      "url": "https://trapezeclubs.com/",
      "lat": 33.7525,
      "lng": -84.3888
    },
    {
      "name": "Mountain Creek Grove",
      "city": "Cleveland",
      "state": "GA",
      "zip": "30528",
      "url": "https://mountaincreekgrove.net/",
      "lat": 34.5839,
      "lng": -83.75
    }
  ],
  "Hawaii": [
    {
      "name": "Hawaii Swingers",
      "city": "Honolulu",
      "state": "HI",
      "zip": "96813",
      "url": "https://hawaiiswingers.net/",
      "lat": 21.3179,
      "lng": -157.8521
    }
  ],
  "Idaho": [
    {
      "name": "The Warehouse",
      "city": "Boise",
      "state": "ID",
      "zip": "83702",
      "url": "https://the-warehouseboise.com/",
      "lat": 43.6322,
      "lng": -116.2052
    },
    {
      "name": "The Idaho White Rose",
      "city": "Post Falls",
      "state": "ID",
      "zip": "83854",
      "url": "https://idahowhiterose.com/",
      "lat": 47.7205,
      "lng": -116.9353
    }
  ],
  "Illinois": [
    {
      "name": "Friends Night Out",
      "city": "Aurora",
      "state": "IL",
      "zip": "60505",
      "url": "https://www.friendsnightout.com/",
      "lat": 41.7582,
      "lng": -88.2971
    },
    {
      "name": "Invite Only",
      "city": "Chicago",
      "state": "IL",
      "zip": "60601",
      "url": "https://www.inviteonlyparties.com/",
      "lat": 41.8858,
      "lng": -87.6181
    },
    {
      "name": "Young Couples Party",
      "city": "Chicago",
      "state": "IL",
      "zip": "60601",
      "url": "https://youngcouplesparty.com/",
      "lat": 41.8858,
      "lng": -87.6181
    },
    {
      "name": "CC's House Parties",
      "city": "Country Club Hills",
      "state": "IL",
      "zip": "60478",
      "url": "https://www.cchouseparty.com/",
      "lat": 41.5637,
      "lng": -87.7247
    },
    {
      "name": "The Lux",
      "city": "Crete",
      "state": "IL",
      "zip": "60417",
      "url": "https://www.thelux.net/",
      "lat": 41.439,
      "lng": -87.6027
    },
    {
      "name": "JR's Place",
      "city": "Loves Park",
      "state": "IL",
      "zip": "61111",
      "url": "http://www.jrsplaceinlovespark.com/",
      "lat": 42.3295,
      "lng": -89.0335
    },
    {
      "name": "Couples Playhouse",
      "city": "Oswego",
      "state": "IL",
      "zip": "60543",
      "url": "http://maxnevascouplesplayhouse.com/",
      "lat": 41.6849,
      "lng": -88.3453
    }
  ],
  "Indiana": [
    {
      "name": "The Champagne Club",
      "city": "Fort Wayne",
      "state": "IN",
      "zip": "46802",
      "url": "https://playchampagne.com/",
      "lat": 41.0707,
      "lng": -85.1543
    },
    {
      "name": "Club Meet4More",
      "city": "Hammond",
      "state": "IN",
      "zip": "46320",
      "url": "https://clubmeet4more.com/",
      "lat": 41.6099,
      "lng": -87.5079
    },
    {
      "name": "Clubhouse 2050",
      "city": "Indianapolis",
      "state": "IN",
      "zip": "46204",
      "url": "https://clubhouse2050.org/",
      "lat": 39.772,
      "lng": -86.1535
    },
    {
      "name": "Sun Aura Resort",
      "city": "Lake Village",
      "state": "IN",
      "zip": "46349",
      "url": "https://sunauraresort.net/",
      "lat": 41.1387,
      "lng": -87.4454
    },
    {
      "name": "Club NV",
      "city": "Muncie",
      "state": "IN",
      "zip": "47303",
      "url": "https://www.clubnv.net/",
      "lat": 40.218,
      "lng": -85.379
    },
    {
      "name": "Timberhouse",
      "city": "Sheridan",
      "state": "IN",
      "zip": "46069",
      "url": "https://timberhouseparties.com/",
      "lat": 40.1104,
      "lng": -86.2367
    }
  ],
  "Iowa": [
    {
      "name": "Club G",
      "city": "Des Moines",
      "state": "IA",
      "zip": "50309",
      "url": "https://desmoineslifestylesclub.com/",
      "lat": 41.5887,
      "lng": -93.6212
    }
  ],
  "Kansas": [],
  "Kentucky": [
    {
      "name": "Tempted",
      "city": "Louisville",
      "state": "KY",
      "zip": "40202",
      "url": "https://www.clubtempted.com/",
      "lat": 38.2507,
      "lng": -85.7476
    },
    {
      "name": "The Sandbox",
      "city": "Sparta",
      "state": "KY",
      "zip": "41086",
      "url": "https://thesandboxclub.com/",
      "lat": 38.7256,
      "lng": -84.8813
    }
  ],
  "Louisiana": [
    {
      "name": "Colette",
      "city": "New Orleans",
      "state": "LA",
      "zip": "70130",
      "url": "https://www.coletteclubs.com/",
      "lat": 29.9324,
      "lng": -90.0739
    }
  ],
  "Maine": [
    {
      "name": "Maine Swingers Club",
      "city": "Houlton",
      "state": "ME",
      "zip": "04730",
      "url": "https://maineswingers.net/",
      "lat": 46.1188,
      "lng": -67.863
    }
  ],
  "Maryland": [
    {
      "name": "Black Ring Swing",
      "city": "Baltimore",
      "state": "MD",
      "zip": "21201",
      "url": "https://www.blackringswing.com/",
      "lat": 39.2946,
      "lng": -76.6252
    },
    {
      "name": "Tabu Social Club",
      "city": "Catonsville",
      "state": "MD",
      "zip": "21228",
      "url": "https://tabulife.com/",
      "lat": 39.2782,
      "lng": -76.7401
    },
    {
      "name": "Shadows",
      "city": "Hyattsville",
      "state": "MD",
      "zip": "20782",
      "url": "https://www.shadowslove.com/",
      "lat": 38.9647,
      "lng": -76.9649
    },
    {
      "name": "Friction",
      "city": "Linthicum",
      "state": "MD",
      "zip": "21090",
      "url": "https://frictionparties.com/",
      "lat": 39.2092,
      "lng": -76.6681
    },
    {
      "name": "The Private Affair",
      "city": "Port Deposit",
      "state": "MD",
      "zip": "21904",
      "url": "http://www.theprivateaffair.com",
      "lat": 39.6151,
      "lng": -76.0633
    },
    {
      "name": "Rhaven's Haven",
      "city": "Waldorf",
      "state": "MD",
      "zip": "20601",
      "url": "https://www.rhavenshaven.org/",
      "lat": 38.6371,
      "lng": -76.8778
    },
    {
      "name": "Secret Diversion",
      "city": "Waldorf",
      "state": "MD",
      "zip": "20601",
      "url": "https://www.pleasure4themoment.com/",
      "lat": 38.6371,
      "lng": -76.8778
    }
  ],
  "Massachusetts": [
    {
      "name": "Club 4Play",
      "city": "Chicopee",
      "state": "MA",
      "zip": "01013",
      "url": "https://www.club4playparties.com",
      "lat": 42.1596,
      "lng": -72.6082
    },
    {
      "name": "Cherry Lane Nudist Resort",
      "city": "North Adams",
      "state": "MA",
      "zip": "01247",
      "url": "https://cherrylaneresort.com/",
      "lat": 42.6955,
      "lng": -73.08
    },
    {
      "name": "Club Sinz",
      "city": "North Shore",
      "state": "MA",
      "zip": "01950",
      "url": "https://www.clubsinz.com/",
      "lat": 42.813,
      "lng": -70.8847
    }
  ],
  "Michigan": [
    {
      "name": "The Wet Spot",
      "city": "Benton Harbor",
      "state": "MI",
      "zip": "49022",
      "url": "https://www.thewetspotparties.com/",
      "lat": 42.1086,
      "lng": -86.4234
    },
    {
      "name": "Northaven Resort",
      "city": "Brooklyn",
      "state": "MI",
      "zip": "49230",
      "url": "https://cherrylaneresort.com/",
      "lat": 42.1044,
      "lng": -84.2414
    },
    {
      "name": "Wild Walkers",
      "city": "Dearborn Heights",
      "state": "MI",
      "zip": "48127",
      "url": "https://www.wildwalkersclub.com/",
      "lat": 42.3353,
      "lng": -83.2864
    },
    {
      "name": "Hidden Agenda",
      "city": "Detroit",
      "state": "MI",
      "zip": "48226",
      "url": "https://ahiddenagenda.com/",
      "lat": 42.3333,
      "lng": -83.0484
    },
    {
      "name": "The Mixology Masquerade at the Manor",
      "city": "Detroit",
      "state": "MI",
      "zip": "48226",
      "url": "http://www.eroticforest.com/",
      "lat": 42.3333,
      "lng": -83.0484
    },
    {
      "name": "Club Chameleon",
      "city": "Flint",
      "state": "MI",
      "zip": "48502",
      "url": "https://www.clubchameleonswingers.com/",
      "lat": 43.0151,
      "lng": -83.6948
    },
    {
      "name": "Your Ali-Bi",
      "city": "Flint",
      "state": "MI",
      "zip": "48502",
      "url": "https://sites.google.com/view/your-ali-bi",
      "lat": 43.0151,
      "lng": -83.6948
    },
    {
      "name": "Club Iniquity",
      "city": "Gaylord",
      "state": "MI",
      "zip": "49735",
      "url": "https://clubiniquitymi.com/",
      "lat": 45.0125,
      "lng": -84.6723
    },
    {
      "name": "616 GR",
      "city": "Grand Rapids",
      "state": "MI",
      "zip": "49503",
      "url": "https://616gr.com/",
      "lat": 42.9659,
      "lng": -85.6527
    },
    {
      "name": "Ace / Angel Entertainment",
      "city": "Livonia",
      "state": "MI",
      "zip": "48150",
      "url": "https://www.angelentertainment.club/",
      "lat": 42.3615,
      "lng": -83.3649
    },
    {
      "name": "Cherry Lane",
      "city": "North Adams",
      "state": "MI",
      "zip": "01247",
      "url": "https://cherrylaneresort.com/",
      "lat": 42.6955,
      "lng": -73.08
    }
  ],
  "Minnesota": [
    {
      "name": "Two Creeks Campground",
      "city": "Sandstone",
      "state": "MN",
      "zip": "55072",
      "url": "https://2creeks.com/",
      "lat": 46.1325,
      "lng": -92.589
    }
  ],
  "Mississippi": [
    {
      "name": "Close Encounters",
      "city": "Jackson",
      "state": "MS",
      "zip": "39201",
      "url": "http://www.close-encounters-club.com",
      "lat": 32.2935,
      "lng": -90.1867
    }
  ],
  "Missouri": [
    {
      "name": "The Fantasy Lounge",
      "city": "Kansas City",
      "state": "MO",
      "zip": "64106",
      "url": "https://www.thefantasylounge.com/",
      "lat": 39.1052,
      "lng": -94.5699
    }
  ],
  "Montana": [],
  "Nebraska": [
    {
      "name": "Forbidden",
      "city": "Omaha",
      "state": "NE",
      "zip": "68102",
      "url": "https://forbiddeno.com/",
      "lat": 41.259,
      "lng": -95.9409
    }
  ],
  "Nevada": [
    {
      "name": "Club 5150",
      "city": "Las Vegas",
      "state": "NV",
      "zip": "89109",
      "url": "https://www.club5150.lifestyle/",
      "lat": 36.126,
      "lng": -115.1454
    },
    {
      "name": "Flirts LV",
      "city": "Las Vegas",
      "state": "NV",
      "zip": "89109",
      "url": "https://www.flirtslv.com/",
      "lat": 36.126,
      "lng": -115.1454
    },
    {
      "name": "Playhouse LV",
      "city": "Las Vegas",
      "state": "NV",
      "zip": "89109",
      "url": "https://www.playhouselv.com/",
      "lat": 36.126,
      "lng": -115.1454
    },
    {
      "name": "Purrfect LV Swinger Parties",
      "city": "Las Vegas",
      "state": "NV",
      "zip": "89109",
      "url": "https://members.purrfectlv.com/",
      "lat": 36.126,
      "lng": -115.1454
    },
    {
      "name": "Red Rooster",
      "city": "Las Vegas",
      "state": "NV",
      "zip": "89109",
      "url": "https://redrooster.vegas/",
      "lat": 36.126,
      "lng": -115.1454
    },
    {
      "name": "Sea Mountain (listed)",
      "city": "Las Vegas",
      "state": "NV",
      "zip": "89109",
      "url": "https://www.seamountainranch.com/",
      "lat": 36.126,
      "lng": -115.1454
    },
    {
      "name": "Swinger Circle",
      "city": "Las Vegas",
      "state": "NV",
      "zip": "89109",
      "url": "https://www.swingerscircle.com/",
      "lat": 36.126,
      "lng": -115.1454
    },
    {
      "name": "The Green Door",
      "city": "Las Vegas",
      "state": "NV",
      "zip": "89109",
      "url": "https://greendoorlasvegas.com/",
      "lat": 36.126,
      "lng": -115.1454
    },
    {
      "name": "Whisper",
      "city": "Las Vegas",
      "state": "NV",
      "zip": "89109",
      "url": "https://www.whispersvegas.com/",
      "lat": 36.126,
      "lng": -115.1454
    },
    {
      "name": "PK Social",
      "city": "Reno",
      "state": "NV",
      "zip": "89501",
      "url": "https://pksocialclub.org/",
      "lat": 39.5268,
      "lng": -119.8113
    }
  ],
  "New Hampshire": [],
  "New Jersey": [
    {
      "name": "Saints and Sinners",
      "city": "Atlantic City",
      "state": "NJ",
      "zip": "08401",
      "url": "https://saintsandsinnersclubs.com/",
      "lat": 39.3664,
      "lng": -74.4317
    },
    {
      "name": "Intimate Parties Group",
      "city": "Glen Gardner",
      "state": "NJ",
      "zip": "08826",
      "url": "https://intimatepartiesgroup.com/",
      "lat": 40.7134,
      "lng": -74.9162
    },
    {
      "name": "Karizma Social Club",
      "city": "Glen Gardner",
      "state": "NJ",
      "zip": "08826",
      "url": "https://karizmasocialclub.com/",
      "lat": 40.7134,
      "lng": -74.9162
    },
    {
      "name": "Curvy and Fabulous Events",
      "city": "Hazlet",
      "state": "NJ",
      "zip": "07730",
      "url": "https://curvyandfabulous.com/",
      "lat": 40.4226,
      "lng": -74.1799
    },
    {
      "name": "Silver and Spicy",
      "city": "Middleton",
      "state": "NJ",
      "zip": "07748",
      "url": "https://silverandspicy.com/",
      "lat": 40.3944,
      "lng": -74.1157
    },
    {
      "name": "Samantha's Stable",
      "city": "Monroeville",
      "state": "NJ",
      "zip": "08343",
      "url": "https://www.samanthasstable.com/",
      "lat": 39.6442,
      "lng": -75.1568
    }
  ],
  "New Mexico": [
    {
      "name": "Spectrum",
      "city": "Albuquerque",
      "state": "NM",
      "zip": "87102",
      "url": "http://www.spectrumparties.com",
      "lat": 35.0818,
      "lng": -106.6482
    }
  ],
  "New York": [
    {
      "name": "SatinSheetDreams",
      "city": "Albany",
      "state": "NY",
      "zip": "12207",
      "url": "https://satinsheetdreams.com/",
      "lat": 42.656,
      "lng": -73.7508
    },
    {
      "name": "Caligula",
      "city": "Astoria",
      "state": "NY",
      "zip": "11102",
      "url": "https://www.caligulany.com/",
      "lat": 40.7706,
      "lng": -73.9265
    },
    {
      "name": "My Frisky Business",
      "city": "Babylon",
      "state": "NY",
      "zip": "11702",
      "url": "http://www.myfriskybusiness.net",
      "lat": 40.6642,
      "lng": -73.341
    },
    {
      "name": "The People's Party",
      "city": "Babylon",
      "state": "NY",
      "zip": "11702",
      "url": "https://swing67.wixsite.com/thepeoplesparty",
      "lat": 40.6642,
      "lng": -73.341
    },
    {
      "name": "Vanilla Needs Chocolate",
      "city": "Garden City",
      "state": "NY",
      "zip": "11530",
      "url": "http://www.vnclifestyle.com/",
      "lat": 40.7245,
      "lng": -73.6487
    },
    {
      "name": "Deviate Network",
      "city": "Kingston",
      "state": "NY",
      "zip": "12401",
      "url": "https://www.thedeviatenetwork.com/events",
      "lat": 41.9697,
      "lng": -74.0668
    },
    {
      "name": "Badd Kitty Club",
      "city": "Liverpool",
      "state": "NY",
      "zip": "13088",
      "url": "http://www.baddkittyclub.com/",
      "lat": 43.1099,
      "lng": -76.187
    },
    {
      "name": "Syracuse Speakeasy",
      "city": "Liverpool",
      "state": "NY",
      "zip": "13088",
      "url": "https://syracusespeakeasy.com/",
      "lat": 43.1099,
      "lng": -76.187
    },
    {
      "name": "Mindbender Parties",
      "city": "Moriches",
      "state": "NY",
      "zip": "11955",
      "url": "https://www.mindbenderparties.com/",
      "lat": 40.8095,
      "lng": -72.8229
    },
    {
      "name": "Victoria's Soiree",
      "city": "Newburgh",
      "state": "NY",
      "zip": "12550",
      "url": "https://victoriassoiree.my.canva.site/",
      "lat": 41.5372,
      "lng": -74.0526
    },
    {
      "name": "CheckMate New York",
      "city": "New York",
      "state": "NY",
      "zip": "10001",
      "url": "https://www.checkmatenyc.com/",
      "lat": 40.7484,
      "lng": -73.9967
    },
    {
      "name": "Club Labyrinth",
      "city": "New York",
      "state": "NY",
      "zip": "10001",
      "url": "https://clublabyrinth.com/",
      "lat": 40.7484,
      "lng": -73.9967
    },
    {
      "name": "The Diamond Club NYC",
      "city": "New York",
      "state": "NY",
      "zip": "10001",
      "url": "https://thediamondclubnyc.com/",
      "lat": 40.7484,
      "lng": -73.9967
    },
    {
      "name": "The Loft",
      "city": "New York",
      "state": "NY",
      "zip": "10001",
      "url": "https://theloftesl.com/",
      "lat": 40.7484,
      "lng": -73.9967
    },
    {
      "name": "Medusa's Playhouse",
      "city": "West Babylon",
      "state": "NY",
      "zip": "11704",
      "url": "https://sharenationevents.com/",
      "lat": 40.7135,
      "lng": -73.3546
    }
  ],
  "North Carolina": [
    {
      "name": "Carolina Friends",
      "city": "Clemmons",
      "state": "NC",
      "zip": "27012",
      "url": "https://carolinafriends.com/",
      "lat": 36.0341,
      "lng": -80.3962
    },
    {
      "name": "You Know Where",
      "city": "Fayetteville",
      "state": "NC",
      "zip": "28301",
      "url": "https://www.youknowwherenc.com/",
      "lat": 35.0743,
      "lng": -78.8836
    },
    {
      "name": "Club Red Door",
      "city": "Gastonia",
      "state": "NC",
      "zip": "28052",
      "url": "https://www.clubreddoor.com/",
      "lat": 35.2449,
      "lng": -81.2194
    },
    {
      "name": "Club C3",
      "city": "New Bern",
      "state": "NC",
      "zip": "28560",
      "url": "https://clubc3.com/",
      "lat": 35.1204,
      "lng": -76.9842
    },
    {
      "name": "Friction",
      "city": "Raleigh",
      "state": "NC",
      "zip": "27601",
      "url": "https://frictionparties.com/",
      "lat": 35.7727,
      "lng": -78.6324
    },
    {
      "name": "The House",
      "city": "Raleigh",
      "state": "NC",
      "zip": "27601",
      "url": "https://iltephouse.com/",
      "lat": 35.7727,
      "lng": -78.6324
    },
    {
      "name": "Ludus Social Club",
      "city": "Wilmington",
      "state": "NC",
      "zip": "28401",
      "url": "https://clubludus.co/",
      "lat": 34.2726,
      "lng": -77.9633
    }
  ],
  "North Dakota": [],
  "Ohio": [
    {
      "name": "Club Eros",
      "city": "Cleveland",
      "state": "OH",
      "zip": "44114",
      "url": "https://cluberoscleveland.com/",
      "lat": 41.5064,
      "lng": -81.6742
    },
    {
      "name": "Club Escape",
      "city": "Cleveland",
      "state": "OH",
      "zip": "44114",
      "url": "https://www.clubescapecleveland.com/",
      "lat": 41.5064,
      "lng": -81.6742
    },
    {
      "name": "IntimateParties Group",
      "city": "Columbus",
      "state": "OH",
      "zip": "43215",
      "url": "https://intimatepartiesgroup.com/",
      "lat": 39.9671,
      "lng": -83.0044
    },
    {
      "name": "Club Princeton",
      "city": "Columbus",
      "state": "OH",
      "zip": "43215",
      "url": "https://clubprinceton.com/",
      "lat": 39.9671,
      "lng": -83.0044
    },
    {
      "name": "Ohana's Club",
      "city": "Columbus",
      "state": "OH",
      "zip": "43215",
      "url": "https://ohanas.club/",
      "lat": 39.9671,
      "lng": -83.0044
    },
    {
      "name": "Play Champagne",
      "city": "Columbus",
      "state": "OH",
      "zip": "43215",
      "url": "https://www.playchampagne.com/",
      "lat": 39.9671,
      "lng": -83.0044
    },
    {
      "name": "Club Flavor",
      "city": "Massillon",
      "state": "OH",
      "zip": "44646",
      "url": "https://www.clubflavorohio.com/",
      "lat": 40.8116,
      "lng": -81.4973
    },
    {
      "name": "Club Sinday",
      "city": "Middletown",
      "state": "OH",
      "zip": "45042",
      "url": "https://www.clubsinday.com/",
      "lat": 39.5321,
      "lng": -84.3896
    },
    {
      "name": "Club 440",
      "city": "Milford",
      "state": "OH",
      "zip": "45150",
      "url": "https://www.club440online.com/",
      "lat": 39.1657,
      "lng": -84.233
    },
    {
      "name": "Secret Desires of Ohio",
      "city": "Sandusky",
      "state": "OH",
      "zip": "44870",
      "url": "https://secretdesiresofohio.com/",
      "lat": 41.4349,
      "lng": -82.7063
    },
    {
      "name": "Euphoria",
      "city": "Toledo",
      "state": "OH",
      "zip": "43604",
      "url": "https://www.toledoadultparties.com/",
      "lat": 41.6614,
      "lng": -83.5249
    },
    {
      "name": "Explore",
      "city": "Valley View",
      "state": "OH",
      "zip": "44125",
      "url": "https://explore-events.com/",
      "lat": 41.4335,
      "lng": -81.6323
    },
    {
      "name": "Yard Clubhouse",
      "city": "Youngstown",
      "state": "OH",
      "zip": "44503",
      "url": "https://trainyardclubhouse.com/",
      "lat": 41.102,
      "lng": -80.65
    }
  ],
  "Oklahoma": [
    {
      "name": "Club Eden",
      "city": "Oklahoma City",
      "state": "OK",
      "zip": "73102",
      "url": "https://edenclubs.co",
      "lat": 35.4726,
      "lng": -97.5199
    },
    {
      "name": "The Club",
      "city": "Oklahoma City",
      "state": "OK",
      "zip": "73102",
      "url": "https://www.theclubinokc.com/",
      "lat": 35.4726,
      "lng": -97.5199
    }
  ],
  "Oregon": [
    {
      "name": "Club Privata",
      "city": "Portland",
      "state": "OR",
      "zip": "97205",
      "url": "https://www.clubprivata.com/",
      "lat": 45.5207,
      "lng": -122.6888
    },
    {
      "name": "Sanctuary",
      "city": "Portland",
      "state": "OR",
      "zip": "97205",
      "url": "https://pdxsanctuary.com/",
      "lat": 45.5207,
      "lng": -122.6888
    },
    {
      "name": "The Velvet Rope",
      "city": "Portland",
      "state": "OR",
      "zip": "97205",
      "url": "https://velvetropepdx.com/",
      "lat": 45.5207,
      "lng": -122.6888
    }
  ],
  "Pennsylvania": [
    {
      "name": "Club Giggity",
      "city": "Allentown",
      "state": "PA",
      "zip": "18101",
      "url": "https://www.clubgiggity.com/",
      "lat": 40.6026,
      "lng": -75.4691
    },
    {
      "name": "DJ's Island",
      "city": "Beaver Falls",
      "state": "PA",
      "zip": "15010",
      "url": "http://www.djsisland.com",
      "lat": 40.7687,
      "lng": -80.3592
    },
    {
      "name": "Secret Pleasures",
      "city": "Emmaus",
      "state": "PA",
      "zip": "18049",
      "url": "http://www.secretpleasures.club/",
      "lat": 40.5293,
      "lng": -75.501
    },
    {
      "name": "TJ's Lasting Impressions",
      "city": "Newport",
      "state": "PA",
      "zip": "17074",
      "url": "https://tjslastingimpressions.com/",
      "lat": 40.4827,
      "lng": -77.1659
    },
    {
      "name": "Friction",
      "city": "Philadelphia",
      "state": "PA",
      "zip": "19107",
      "url": "https://frictionparties.com/",
      "lat": 39.9487,
      "lng": -75.1593
    },
    {
      "name": "Friction4Her",
      "city": "Philadelphia",
      "state": "PA",
      "zip": "19107",
      "url": "https://friction4her.com/",
      "lat": 39.9487,
      "lng": -75.1593
    },
    {
      "name": "Saints and Sinners",
      "city": "Philadelphia",
      "state": "PA",
      "zip": "19107",
      "url": "https://www.saintsandsinnersclubs.com/",
      "lat": 39.9487,
      "lng": -75.1593
    },
    {
      "name": "Sanger Soirees (Savage Soirees)",
      "city": "Philadelphia",
      "state": "PA",
      "zip": "19107",
      "url": "https://savagesoireeslifestyleevents.godaddysites.com/",
      "lat": 39.9487,
      "lng": -75.1593
    },
    {
      "name": "Sinner's Paradise",
      "city": "Philadelphia",
      "state": "PA",
      "zip": "19107",
      "url": "https://sinnersparadise.weebly.com/",
      "lat": 39.9487,
      "lng": -75.1593
    },
    {
      "name": "Body Shop",
      "city": "Pittsburgh",
      "state": "PA",
      "zip": "15222",
      "url": "https://bodyshopclubs.com/",
      "lat": 40.4477,
      "lng": -79.9933
    },
    {
      "name": "Secret Sinsations",
      "city": "Pittsburgh",
      "state": "PA",
      "zip": "15222",
      "url": "http://www.secretsinsations.com/",
      "lat": 40.4477,
      "lng": -79.9933
    },
    {
      "name": "The Korral",
      "city": "Spring Grove",
      "state": "PA",
      "zip": "17362",
      "url": "http://www.thekorral.com",
      "lat": 39.8572,
      "lng": -76.8774
    },
    {
      "name": "Sugar and Spice",
      "city": "West Chester",
      "state": "PA",
      "zip": "19380",
      "url": "http://www.pssom.com/",
      "lat": 39.9845,
      "lng": -75.5962
    },
    {
      "name": "Swing Out Socials",
      "city": "York",
      "state": "PA",
      "zip": "17401",
      "url": "http://www.swingoutsocials.com/",
      "lat": 39.9635,
      "lng": -76.7269
    }
  ],
  "Rhode Island": [
    {
      "name": "Rhody Boats",
      "city": "Bristol",
      "state": "RI",
      "zip": "02809",
      "url": "https://www.rhodyboats.com/",
      "lat": 41.6825,
      "lng": -71.2676
    },
    {
      "name": "Choice Social Club",
      "city": "Providence",
      "state": "RI",
      "zip": "02903",
      "url": "https://www.choicesocialclub.com/",
      "lat": 41.82,
      "lng": -71.4158
    },
    {
      "name": "Electricity Social Club",
      "city": "Providence",
      "state": "RI",
      "zip": "02903",
      "url": "https://www.electricitysocialclub.com/",
      "lat": 41.82,
      "lng": -71.4158
    },
    {
      "name": "Playground",
      "city": "Providence",
      "state": "RI",
      "zip": "02903",
      "url": "https://www.riplayground.net/",
      "lat": 41.82,
      "lng": -71.4158
    }
  ],
  "South Carolina": [
    {
      "name": "Foothills Club",
      "city": "Anderson",
      "state": "SC",
      "zip": "29621",
      "url": "https://thefoothillsclub.com/",
      "lat": 34.5261,
      "lng": -82.6304
    },
    {
      "name": "Dalliance",
      "city": "Columbia",
      "state": "SC",
      "zip": "29201",
      "url": "https://clubdalliance.com/",
      "lat": 34.0004,
      "lng": -81.0334
    },
    {
      "name": "Lifestyle Connections",
      "city": "Fort Mill",
      "state": "SC",
      "zip": "29715",
      "url": "http://www.lifestyleconnections.net/",
      "lat": 35.0108,
      "lng": -80.9266
    },
    {
      "name": "The Melting Pot for Adult Fun",
      "city": "Greenville",
      "state": "SC",
      "zip": "29601",
      "url": "https://www.mp4af.com/",
      "lat": 34.8472,
      "lng": -82.406
    },
    {
      "name": "Lacey's Playhouse",
      "city": "Myrtle Beach",
      "state": "SC",
      "zip": "29572",
      "url": "https://laceysplayhouse.net/",
      "lat": 33.7587,
      "lng": -78.8044
    }
  ],
  "South Dakota": [],
  "Tennessee": [
    {
      "name": "Pandora's Lifestyle Resort & Club",
      "city": "Crossville",
      "state": "TN",
      "zip": "38555",
      "url": "https://pandorasresort.com/",
      "lat": 35.9623,
      "lng": -85.0514
    },
    {
      "name": "Elation",
      "city": "Goodlettsville",
      "state": "TN",
      "zip": "37072",
      "url": "https://www.elation.club/",
      "lat": 36.3417,
      "lng": -86.7212
    },
    {
      "name": "Tennessee Temptations",
      "city": "Johnson City",
      "state": "TN",
      "zip": "37601",
      "url": "https://www.tntempt.com/",
      "lat": 36.3339,
      "lng": -82.3408
    },
    {
      "name": "Eros",
      "city": "Knoxville",
      "state": "TN",
      "zip": "37902",
      "url": "http://www.erosknoxville.com",
      "lat": 35.9625,
      "lng": -83.9209
    },
    {
      "name": "Friction",
      "city": "Knoxville",
      "state": "TN",
      "zip": "37902",
      "url": "https://www.frictionparties.com",
      "lat": 35.9625,
      "lng": -83.9209
    },
    {
      "name": "Chemistry",
      "city": "Madison",
      "state": "TN",
      "zip": "37115",
      "url": "https://www.chemistrygold.com/",
      "lat": 36.2604,
      "lng": -86.7046
    },
    {
      "name": "Excalibur at Camelot",
      "city": "Mohawk",
      "state": "TN",
      "zip": "37810",
      "url": "https://excaliburatcamelot.com/",
      "lat": 36.1792,
      "lng": -83.1073
    },
    {
      "name": "Genesis",
      "city": "Memphis",
      "state": "TN",
      "zip": "38103",
      "url": "https://club-genesis.com/",
      "lat": 35.144,
      "lng": -90.048
    },
    {
      "name": "RedRoom",
      "city": "Goodlettsville",
      "state": "TN",
      "zip": "37072",
      "url": "https://www.youtube.com/watch?v=p7YXXieghto",
      "lat": 36.3417,
      "lng": -86.7212
    },
    {
      "name": "Vibe",
      "city": "Nashville",
      "state": "TN",
      "zip": "37203",
      "url": "https://www.partiesbyvibe.com/",
      "lat": 36.1504,
      "lng": -86.7916
    }
  ],
  "Texas": [
    {
      "name": "Colette - Austin",
      "city": "Austin",
      "state": "TX",
      "zip": "78701",
      "url": "https://www.coletteclubs.com/",
      "lat": 30.2713,
      "lng": -97.7426
    },
    {
      "name": "Colette - Dallas",
      "city": "Dallas",
      "state": "TX",
      "zip": "75201",
      "url": "https://www.coletteclubs.com/",
      "lat": 32.7904,
      "lng": -96.8044
    },
    {
      "name": "Playhouse DFW",
      "city": "Dallas",
      "state": "TX",
      "zip": "75201",
      "url": "https://playhousedfw.com/",
      "lat": 32.7904,
      "lng": -96.8044
    },
    {
      "name": "Quiet Encounters",
      "city": "El Paso",
      "state": "TX",
      "zip": "79901",
      "url": "https://quietencounters2.com/",
      "lat": 31.7584,
      "lng": -106.4783
    },
    {
      "name": "Club Eden - Fort Worth",
      "city": "Fort Worth",
      "state": "TX",
      "zip": "76102",
      "url": "https://edenclubs.co/",
      "lat": 32.7589,
      "lng": -97.328
    },
    {
      "name": "Krewe of Swingtown",
      "city": "Goodrich",
      "state": "TX",
      "zip": "77335",
      "url": "https://www.kreweofswingtown.com/",
      "lat": 30.6079,
      "lng": -94.9592
    },
    {
      "name": "Colette - Houston",
      "city": "Houston",
      "state": "TX",
      "zip": "77002",
      "url": "https://www.coletteclubs.com/",
      "lat": 29.7594,
      "lng": -95.3594
    },
    {
      "name": "The Night Game",
      "city": "Houston",
      "state": "TX",
      "zip": "77002",
      "url": "https://www.thebarehideranch.com/",
      "lat": 29.7594,
      "lng": -95.3594
    },
    {
      "name": "The Pendulum Club",
      "city": "Houston",
      "state": "TX",
      "zip": "77002",
      "url": "https://pendulum.club/",
      "lat": 29.7594,
      "lng": -95.3594
    },
    {
      "name": "Tin Boxxx",
      "city": "Lubbock",
      "state": "TX",
      "zip": "79401",
      "url": "https://tinboxxx.com/",
      "lat": 33.5865,
      "lng": -101.8606
    },
    {
      "name": "Barehide Ranch",
      "city": "Poolville",
      "state": "TX",
      "zip": "76085",
      "url": "https://www.thebarehideranch.com/",
      "lat": 32.7676,
      "lng": -97.7516
    },
    {
      "name": "Club Eden - San Antonio",
      "city": "San Antonio",
      "state": "TX",
      "zip": "78205",
      "url": "https://edenclubs.co/",
      "lat": 29.4237,
      "lng": -98.4925
    },
    {
      "name": "Colette - San Antonio",
      "city": "San Antonio",
      "state": "TX",
      "zip": "78205",
      "url": "https://www.coletteclubs.com/",
      "lat": 29.4237,
      "lng": -98.4925
    },
    {
      "name": "Castaways Travel",
      "city": "Spring",
      "state": "TX",
      "zip": "77373",
      "url": "https://castawaystravel.com/",
      "lat": 30.0532,
      "lng": -95.3773
    },
    {
      "name": "OTR4U",
      "city": "Wills Point",
      "state": "TX",
      "zip": "75169",
      "url": "https://otr4u.fun/",
      "lat": 32.7283,
      "lng": -96.0079
    }
  ],
  "Utah": [],
  "Vermont": [],
  "Virginia": [
    {
      "name": "The Upside Down Pineapple Club",
      "city": "Manassas",
      "state": "VA",
      "zip": "20110",
      "url": "https://upsidedownpineapple.club/",
      "lat": 38.7492,
      "lng": -77.4878
    },
    {
      "name": "Virginia Friends",
      "city": "Richmond",
      "state": "VA",
      "zip": "23219",
      "url": "https://www.vafriendsonline.com/",
      "lat": 37.5463,
      "lng": -77.4378
    },
    {
      "name": "Virginia's Secret",
      "city": "Richmond",
      "state": "VA",
      "zip": "23219",
      "url": "https://vasecret.com/",
      "lat": 37.5463,
      "lng": -77.4378
    },
    {
      "name": "Interracial / International Couples and People Who Love Them",
      "city": "Springfield",
      "state": "VA",
      "zip": "22150",
      "url": "http://www.126044774866949457.com/",
      "lat": 38.7797,
      "lng": -77.1866
    }
  ],
  "Washington": [
    {
      "name": "Eros",
      "city": "Redmond",
      "state": "WA",
      "zip": "98052",
      "url": "https://eros-events.org/",
      "lat": 47.6718,
      "lng": -122.1232
    },
    {
      "name": "Couple's Cupid Lifestyle Lounge",
      "city": "Seattle",
      "state": "WA",
      "zip": "98101",
      "url": "https://www.couplescupid.org/",
      "lat": 47.6114,
      "lng": -122.3305
    },
    {
      "name": "Sapphire",
      "city": "Seattle",
      "state": "WA",
      "zip": "98101",
      "url": "https://clubsapphire.com/",
      "lat": 47.6114,
      "lng": -122.3305
    }
  ],
  "West Virginia": [
    {
      "name": "The Riverside Club",
      "city": "Gallipolis Ferry",
      "state": "WV",
      "zip": "25515",
      "url": "https://www.swingclubwv.com/",
      "lat": 38.765,
      "lng": -82.1535
    }
  ],
  "Wisconsin": [
    {
      "name": "Camp NCN",
      "city": "Black River Falls",
      "state": "WI",
      "zip": "54615",
      "url": "https://campncn.com/",
      "lat": 44.2954,
      "lng": -90.8313
    },
    {
      "name": "Mars Shags Venus",
      "city": "Madison",
      "state": "WI",
      "zip": "53703",
      "url": "https://marsshagsvenus.com/",
      "lat": 43.0775,
      "lng": -89.3831
    },
    {
      "name": "Jen's Social Networking",
      "city": "Milwaukee",
      "state": "WI",
      "zip": "53202",
      "url": "https://jenssocialnetworking.com/",
      "lat": 43.0506,
      "lng": -87.8968
    }
  ],
  "Wyoming": []
}
