{
  "Alabama": [
    { "name": "Gems Club", "url": "https://www.gemsclub.co/", "city": "Birmingham", "state": "AL", "zip": "", "lat": 0.0, "lng": 0.0 },
    { "name": "Erotica", "url": "https://eroticaparty.com/", "city": "Huntsville", "state": "AL", "zip": "", "lat": 0.0, "lng": 0.0 },
    { "name": "Seduction", "url": "https://seductionparties.club/", "city": "Birmingham", "state": "AL", "zip": "", "lat": 0.0, "lng": 0.0 }
  ],
  "Alaska": [],
  "Arizona": [
    { "name": "Club Encounters", "url": "https://clubencounters.com/", "city": "Phoenix", "state": "AZ", "zip": "", "lat": 0.0, "lng": 0.0 },
    { "name": "Vixxxins", "url": "https://www.vixxxins.info/", "city": "Goodyear", "state": "AZ", "zip": "", "lat": 0.0, "lng": 0.0 }
  ],
  "Arkansas": [
    { "name": "Arkansas Swinger", "url": "http://arkansasswinger.net/", "city": "Rogers/Pine Bluff", "state": "AR", "zip": "", "lat": 0.0, "lng": 0.0 }
  ],
  "California": [
    { "name": "Allures", "url": "https://www.allureslifestyle.com/", "city": "Sacramento", "state": "CA", "zip": "", "lat": 0.0, "lng": 0.0 },
    { "name": "Gary and Margaret's", "url": "https://garyandmargarets.org/", "city": "Mira Loma", "state": "CA", "zip": "", "lat": 0.0, "lng": 0.0 },
    { "name": "SoCal Circus", "url": "https://socalcircusowner.wix.com/socalcircus", "city": "Huntington Beach", "state": "CA", "zip": "", "lat": 0.0, "lng": 0.0 },
    { "name": "Bronze Party", "url": "https://bronzeparty.com/", "city": "Palo Alto", "state": "CA", "zip": "", "lat": 0.0, "lng": 0.0 },
    { "name": "Twist", "url": "https://www.twist-sf.com/", "city": "San Francisco", "state": "CA", "zip": "", "lat": 0.0, "lng": 0.0 },
    { "name": "Sea Mountain Nude Resort and Lifestyle Hotel", "url": "https://www.seamountainranch.com/", "city": "Palm Springs", "state": "CA", "zip": "", "lat": 0.0, "lng": 0.0 },
    { "name": "Simply Living Silver", "url": "https://simplylivingsilver.com/", "city": "Bakersfield", "state": "CA", "zip": "", "lat": 0.0, "lng": 0.0 },
    { "name": "Exotic Dreams Resort", "url": "https://www.edrhotel.com/", "city": "Palm Springs", "state": "CA", "zip": "", "lat": 0.0, "lng": 0.0 },
    { "name": "The Suite Life", "url": "https://thesuitelifeplatinum.com/", "city": "Sacramento", "state": "CA", "zip": "", "lat": 0.0, "lng": 0.0 },
    { "name": "Tangerine's Dream", "url": "https://tangerinesdream.com/", "city": "San Jose", "state": "CA", "zip": "", "lat": 0.0, "lng": 0.0 },
    { "name": "Thads", "url": "https://www.thads.com/", "city": "San Diego", "state": "CA", "zip": "", "lat": 0.0, "lng": 0.0 },
    { "name": "247Fetish", "url": "https://247fetish.net/", "city": "San Francisco", "state": "CA", "zip": "", "lat": 0.0, "lng": 0.0 },
    { "name": "Club Labyrinth", "url": "https://clublabyrinth.com/", "city": "Los Angeles", "state": "CA", "zip": "", "lat": 0.0, "lng": 0.0 },
    { "name": "Tentaciones", "url": "https://www.tentacionesla.com/", "city": "Los Angeles", "state": "CA", "zip": "", "lat": 0.0, "lng": 0.0 },
    { "name": "Club Joi", "url": "https://www.clubjoi.com/", "city": "Los Angeles", "state": "CA", "zip": "", "lat": 0.0, "lng": 0.0 },
    { "name": "Gemini Social Club", "url": "https://geminisocialclub.wordpress.com/", "city": "Pomona", "state": "CA", "zip": "", "lat": 0.0, "lng": 0.0 },
    { "name": "Kinky Rabbit Club", "url": "https://knkyrabbitclub.com/", "city": "Los Angeles", "state": "CA", "zip": "", "lat": 0.0, "lng": 0.0 },
    { "name": "Playmates Parties", "url": "https://swingersclubsreviews.org/", "city": "Los Angeles", "state": "CA", "zip": "", "lat": 0.0, "lng": 0.0 },
    { "name": "House of Black", "url": "https://www.houseofblack.com/", "city": "San Diego", "state": "CA", "zip": "", "lat": 0.0, "lng": 0.0 },
    { "name": "Club Safeword", "url": "https://www.clubsafeword.com/", "city": "San Diego", "state": "CA", "zip": "", "lat": 0.0, "lng": 0.0 },
    { "name": "SoCal BBW Swingers and Admirers", "url": "https://bbwswingers.party/", "city": "Anaheim", "state": "CA", "zip": "", "lat": 0.0, "lng": 0.0 },
    { "name": "The Cougars Den", "url": "https://www.thecougarsden.info/", "city": "Quartz Hill", "state": "CA", "zip": "", "lat": 0.0, "lng": 0.0 },
    { "name": "Noches Atrevidas", "url": "https://nochesatrevidaslosangeles.weebly.com/", "city": "Los Angeles", "state": "CA", "zip": "", "lat": 0.0, "lng": 0.0 },
    { "name": "The Mountainside Acres", "url": "https://mountainsideacresresort.com/", "city": "San Bernardino", "state": "CA", "zip": "", "lat": 0.0, "lng": 0.0 },
    { "name": "Vixen", "url": "https://www.vixenclub.com/", "city": "Van Nuys", "state": "CA", "zip": "", "lat": 0.0, "lng": 0.0 },
    { "name": "Club Kiss", "url": "https://www.clubkiss.us/", "city": "San Francisco", "state": "CA", "zip": "", "lat": 0.0, "lng": 0.0 }
  ],
  "Colorado": [
    { "name": "Scarlet Ranch", "url": "https://www.scarletranch.com/", "city": "Littleton", "state": "CO", "zip": "", "lat": 0.0, "lng": 0.0 },
    { "name": "Mon Chalet", "url": "https://mon-chalet.com/", "city": "Aurora", "state": "CO", "zip": "", "lat": 0.0, "lng": 0.0 },
    { "name": "Rocky Mountain Parties", "url": "https://www.rmpfun.com/", "city": "", "state": "CO", "zip": "", "lat": 0.0, "lng": 0.0 },
    { "name": "Voodoo Leatherworks", "url": "https://www.voodooleatherworks.com/", "city": "Colorado Springs", "state": "CO", "zip": "", "lat": 0.0, "lng": 0.0 }
  ],
  "Connecticut": [
    { "name": "Wicked Fun", "url": "https://members.wickedfunclub.com/", "city": "Terryville", "state": "CT", "zip": "", "lat": 0.0, "lng": 0.0 },
    { "name": "Leisure Time Club", "url": "https://www.leisuretime-club.com/", "city": "Hartford", "state": "CT", "zip": "", "lat": 0.0, "lng": 0.0 }
  ],
  "Delaware": [],
  "Florida": [
    { "name": "Eyz Wide Shut", "url": "https://eyzwideshut.com/", "city": "Tampa", "state": "FL", "zip": "", "lat": 0.0, "lng": 0.0 },
    { "name": "Caliente Club and Resort", "url": "https://calienteresorts.com/", "city": "Land O' Lakes", "state": "FL", "zip": "", "lat": 0.0, "lng": 0.0 },
    { "name": "Trapeze", "url": "https://trapezeclubs.com/", "city": "Fort Lauderdale", "state": "FL", "zip": "", "lat": 0.0, "lng": 0.0 }
  ]
}
